{
  "metadata": {
    "region": "Приморский край",
    "bbox": {
      "lon_min": 130.38,
      "lat_min": 42.3,
      "lon_max": 139.44,
      "lat_max": 48.48
    },
    "grid_size": "1x1 градус",
    "total_pois": 1188,
    "rate_filter": 0,
    "categories": [
      "natural"
    ],
    "generated_at": "2025-05-30T12:22:45.979Z",
    "api_source": "OpenTripMap",
    "script_version": "2.0.0"
  },
  "pois": [
    {
      "xid": "R2309145",
      "name": "Дальневосточный морской заповедник",
      "address": {
        "state": "Приморский край",
        "country": "Россия",
        "country_code": "ru"
      },
      "rate": "3",
      "osm": "relation/2309145",
      "bbox": {
        "lon_min": 130.76396,
        "lon_max": 130.963453,
        "lat_min": 42.412744,
        "lat_max": 42.563455
      },
      "wikidata": "Q2166757",
      "kinds": "natural,interesting_places,nature_reserves,nature_reserves_others",
      "url": "http://dvmarin.ru/;http://www.fegi.ru/PRIMORYE/PROTECT/zap.htm",
      "sources": {
        "geometry": "osm",
        "attributes": [
          "osm",
          "wikidata"
        ]
      },
      "otm": "https://opentripmap.com/ru/card/R2309145",
      "wikipedia": "https://ru.wikipedia.org/wiki/%D0%94%D0%B0%D0%BB%D1%8C%D0%BD%D0%B5%D0%B2%D0%BE%D1%81%D1%82%D0%BE%D1%87%D0%BD%D1%8B%D0%B9%20%D0%BC%D0%BE%D1%80%D1%81%D0%BA%D0%BE%D0%B9%20%D0%B7%D0%B0%D0%BF%D0%BE%D0%B2%D0%B5%D0%B4%D0%BD%D0%B8%D0%BA",
      "image": "https://commons.wikimedia.org/wiki/File:%D0%A1%D0%BF%D0%B0%D1%81%D0%B5%D0%BD%D0%B8%D1%8F_%D0%B1%D1%83%D1%85%D1%82%D0%B0%2C_%D0%94%D0%92%D0%93%D0%9C%D0%97_1.jpg",
      "preview": {
        "source": "https://upload.wikimedia.org/wikipedia/commons/thumb/4/45/%D0%A1%D0%BF%D0%B0%D1%81%D0%B5%D0%BD%D0%B8%D1%8F_%D0%B1%D1%83%D1%85%D1%82%D0%B0%2C_%D0%94%D0%92%D0%93%D0%9C%D0%97_1.jpg/400px-%D0%A1%D0%BF%D0%B0%D1%81%D0%B5%D0%BD%D0%B8%D1%8F_%D0%B1%D1%83%D1%85%D1%82%D0%B0%2C_%D0%94%D0%92%D0%93%D0%9C%D0%97_1.jpg",
        "height": 267,
        "width": 400
      },
      "wikipedia_extracts": {
        "title": "ru:Дальневосточный морской заповедник",
        "text": "Дальневосточный морской биосферный государственный природный заповедник в заливе Петра Великого Японского моря учреждён 24 марта 1978 года, объект морского природного наследия.За заповедником закреплено четыре района с разным режимом охраны общей площадью 64316,3 га, в том числе 63000 га морской акватории, и утверждена охранная зона вокруг морских границ шириной 3 мили, вокруг сухопутных — 500 метров.Заповедник — единственный в России, 98% площади которого — акватория. В нём обитает более 5000 видов растений и животных.В сентябре 2003 года заповедник стал участником программы ЮНЕСКО «Человек и биосфера» и получил статус биосферного резервата.Основные направления деятельности заповедника:",
        "html": "<p><b>Дальневосточный морской биосферный государственный природный заповедник</b> в заливе Петра Великого Японского моря учреждён 24 марта 1978&nbsp;года, объект морского природного наследия.</p><p>За заповедником закреплено четыре района с разным режимом охраны общей площадью 64316,3 га, в том числе 63000 га морской акватории, и утверждена охранная зона вокруг морских границ шириной 3 мили, вокруг сухопутных&nbsp;— 500 метров.</p><p>Заповедник — единственный в России, 98% площади которого&nbsp;— акватория. В нём обитает более 5000 видов растений и животных.</p><p>В сентябре 2003 года заповедник стал участником программы ЮНЕСКО «Человек и биосфера» и получил статус биосферного резервата.</p><p>Основные направления деятельности заповедника:</p>"
      },
      "point": {
        "lon": 130.8962860107422,
        "lat": 42.48935317993164
      }
    },
    {
      "xid": "W172818424",
      "name": "Дальневосточный морской заповедник",
      "address": {
        "state": "Приморский край",
        "country": "Россия",
        "country_code": "ru"
      },
      "rate": "3",
      "osm": "way/172818424",
      "bbox": {
        "lon_min": 130.848573,
        "lon_max": 130.875724,
        "lat_min": 42.593733,
        "lat_max": 42.615002
      },
      "wikidata": "Q2166757",
      "kinds": "natural,interesting_places,nature_reserves,nature_reserves_others",
      "url": "http://dvmarin.ru/;http://www.fegi.ru/PRIMORYE/PROTECT/zap.htm",
      "sources": {
        "geometry": "osm",
        "attributes": [
          "osm",
          "wikidata"
        ]
      },
      "otm": "https://opentripmap.com/ru/card/W172818424",
      "wikipedia": "https://ru.wikipedia.org/wiki/%D0%94%D0%B0%D0%BB%D1%8C%D0%BD%D0%B5%D0%B2%D0%BE%D1%81%D1%82%D0%BE%D1%87%D0%BD%D1%8B%D0%B9%20%D0%BC%D0%BE%D1%80%D1%81%D0%BA%D0%BE%D0%B9%20%D0%B7%D0%B0%D0%BF%D0%BE%D0%B2%D0%B5%D0%B4%D0%BD%D0%B8%D0%BA",
      "image": "https://commons.wikimedia.org/wiki/File:%D0%A1%D0%BF%D0%B0%D1%81%D0%B5%D0%BD%D0%B8%D1%8F_%D0%B1%D1%83%D1%85%D1%82%D0%B0%2C_%D0%94%D0%92%D0%93%D0%9C%D0%97_1.jpg",
      "preview": {
        "source": "https://upload.wikimedia.org/wikipedia/commons/thumb/4/45/%D0%A1%D0%BF%D0%B0%D1%81%D0%B5%D0%BD%D0%B8%D1%8F_%D0%B1%D1%83%D1%85%D1%82%D0%B0%2C_%D0%94%D0%92%D0%93%D0%9C%D0%97_1.jpg/400px-%D0%A1%D0%BF%D0%B0%D1%81%D0%B5%D0%BD%D0%B8%D1%8F_%D0%B1%D1%83%D1%85%D1%82%D0%B0%2C_%D0%94%D0%92%D0%93%D0%9C%D0%97_1.jpg",
        "height": 267,
        "width": 400
      },
      "wikipedia_extracts": {
        "title": "ru:Дальневосточный морской заповедник",
        "text": "Дальневосточный морской биосферный государственный природный заповедник в заливе Петра Великого Японского моря учреждён 24 марта 1978 года, объект морского природного наследия.За заповедником закреплено четыре района с разным режимом охраны общей площадью 64316,3 га, в том числе 63000 га морской акватории, и утверждена охранная зона вокруг морских границ шириной 3 мили, вокруг сухопутных — 500 метров.Заповедник — единственный в России, 98% площади которого — акватория. В нём обитает более 5000 видов растений и животных.В сентябре 2003 года заповедник стал участником программы ЮНЕСКО «Человек и биосфера» и получил статус биосферного резервата.Основные направления деятельности заповедника:",
        "html": "<p><b>Дальневосточный морской биосферный государственный природный заповедник</b> в заливе Петра Великого Японского моря учреждён 24 марта 1978&nbsp;года, объект морского природного наследия.</p><p>За заповедником закреплено четыре района с разным режимом охраны общей площадью 64316,3 га, в том числе 63000 га морской акватории, и утверждена охранная зона вокруг морских границ шириной 3 мили, вокруг сухопутных&nbsp;— 500 метров.</p><p>Заповедник — единственный в России, 98% площади которого&nbsp;— акватория. В нём обитает более 5000 видов растений и животных.</p><p>В сентябре 2003 года заповедник стал участником программы ЮНЕСКО «Человек и биосфера» и получил статус биосферного резервата.</p><p>Основные направления деятельности заповедника:</p>"
      },
      "point": {
        "lon": 130.8575439453125,
        "lat": 42.60434341430664
      }
    },
    {
      "xid": "W141611438",
      "name": "Дальневосточный морской заповедник",
      "address": {
        "state": "Приморский край",
        "country": "Россия",
        "country_code": "ru"
      },
      "rate": "3",
      "osm": "way/141611438",
      "bbox": {
        "lon_min": 131.19844,
        "lon_max": 131.502819,
        "lat_min": 42.583721,
        "lat_max": 42.700979
      },
      "wikidata": "Q2166757",
      "kinds": "natural,interesting_places,nature_reserves,nature_reserves_others",
      "url": "http://dvmarin.ru/;http://www.fegi.ru/PRIMORYE/PROTECT/zap.htm",
      "sources": {
        "geometry": "osm",
        "attributes": [
          "osm",
          "wikidata"
        ]
      },
      "otm": "https://opentripmap.com/ru/card/W141611438",
      "wikipedia": "https://ru.wikipedia.org/wiki/%D0%94%D0%B0%D0%BB%D1%8C%D0%BD%D0%B5%D0%B2%D0%BE%D1%81%D1%82%D0%BE%D1%87%D0%BD%D1%8B%D0%B9%20%D0%BC%D0%BE%D1%80%D1%81%D0%BA%D0%BE%D0%B9%20%D0%B7%D0%B0%D0%BF%D0%BE%D0%B2%D0%B5%D0%B4%D0%BD%D0%B8%D0%BA",
      "image": "https://commons.wikimedia.org/wiki/File:%D0%A1%D0%BF%D0%B0%D1%81%D0%B5%D0%BD%D0%B8%D1%8F_%D0%B1%D1%83%D1%85%D1%82%D0%B0%2C_%D0%94%D0%92%D0%93%D0%9C%D0%97_1.jpg",
      "preview": {
        "source": "https://upload.wikimedia.org/wikipedia/commons/thumb/4/45/%D0%A1%D0%BF%D0%B0%D1%81%D0%B5%D0%BD%D0%B8%D1%8F_%D0%B1%D1%83%D1%85%D1%82%D0%B0%2C_%D0%94%D0%92%D0%93%D0%9C%D0%97_1.jpg/400px-%D0%A1%D0%BF%D0%B0%D1%81%D0%B5%D0%BD%D0%B8%D1%8F_%D0%B1%D1%83%D1%85%D1%82%D0%B0%2C_%D0%94%D0%92%D0%93%D0%9C%D0%97_1.jpg",
        "height": 267,
        "width": 400
      },
      "wikipedia_extracts": {
        "title": "ru:Дальневосточный морской заповедник",
        "text": "Дальневосточный морской биосферный государственный природный заповедник в заливе Петра Великого Японского моря учреждён 24 марта 1978 года, объект морского природного наследия.За заповедником закреплено четыре района с разным режимом охраны общей площадью 64316,3 га, в том числе 63000 га морской акватории, и утверждена охранная зона вокруг морских границ шириной 3 мили, вокруг сухопутных — 500 метров.Заповедник — единственный в России, 98% площади которого — акватория. В нём обитает более 5000 видов растений и животных.В сентябре 2003 года заповедник стал участником программы ЮНЕСКО «Человек и биосфера» и получил статус биосферного резервата.Основные направления деятельности заповедника:",
        "html": "<p><b>Дальневосточный морской биосферный государственный природный заповедник</b> в заливе Петра Великого Японского моря учреждён 24 марта 1978&nbsp;года, объект морского природного наследия.</p><p>За заповедником закреплено четыре района с разным режимом охраны общей площадью 64316,3 га, в том числе 63000 га морской акватории, и утверждена охранная зона вокруг морских границ шириной 3 мили, вокруг сухопутных&nbsp;— 500 метров.</p><p>Заповедник — единственный в России, 98% площади которого&nbsp;— акватория. В нём обитает более 5000 видов растений и животных.</p><p>В сентябре 2003 года заповедник стал участником программы ЮНЕСКО «Человек и биосфера» и получил статус биосферного резервата.</p><p>Основные направления деятельности заповедника:</p>"
      },
      "point": {
        "lon": 131.35887145996094,
        "lat": 42.64237594604492
      }
    },
    {
      "xid": "Q2956016",
      "name": "Chang-ku Feng",
      "address": {
        "city": "Хасанское городское поселение",
        "state": "Приморский край",
        "county": "Хасанский район",
        "country": "Россия",
        "country_code": "ru"
      },
      "rate": "3",
      "wikidata": "Q2956016",
      "kinds": "mountain_peaks,interesting_places,natural,geological_formations",
      "sources": {
        "geometry": "wikidata",
        "attributes": [
          "wikidata"
        ]
      },
      "otm": "https://opentripmap.com/ru/card/Q2956016",
      "wikipedia": "https://fr.wikipedia.org/wiki/Chang-ku%20Feng",
      "image": "https://commons.wikimedia.org/wiki/File:Battle_of_Lake_Khasan-Red_Army_soldiers_setting_the_flag_on_the_Zaozernaya_Hill.jpg",
      "preview": {
        "source": "https://upload.wikimedia.org/wikipedia/commons/thumb/8/8d/Battle_of_Lake_Khasan-Red_Army_soldiers_setting_the_flag_on_the_Zaozernaya_Hill.jpg/272px-Battle_of_Lake_Khasan-Red_Army_soldiers_setting_the_flag_on_the_Zaozernaya_Hill.jpg",
        "height": 400,
        "width": 272
      },
      "wikipedia_extracts": {
        "title": "fr:Chang-ku Feng",
        "text": "Chang-ku Feng ou Zaozyornaya est une colline de Russie proche de la localité de Khassan et du lac du même nom dont la situation est jugée stratégique à proximité des frontières avec la Chine et la Corée du Nord.Durant la bataille du lac Khassan, la colline fut à plusieurs reprises prise et reprise par l'Armée soviétique et l'Armée impériale japonaise.Portail de la montagne Portail de la Russie Portail de la Sibérie",
        "html": "<p><b>Chang-ku Feng</b> ou <b>Zaozyornaya</b> est une colline de Russie proche de la localité de Khassan et du lac du même nom dont la situation est jugée stratégique à proximité des frontières avec la Chine et la Corée du Nord.</p><p>Durant la bataille du lac Khassan, la colline fut à plusieurs reprises prise et reprise par l'Armée soviétique et l'Armée impériale japonaise.</p><ul><li><span><span></span> <span>Portail de la montagne</span> </span></li> \n<li><span><span></span> <span>Portail de la Russie</span> </span></li> \n<li><span><span></span> <span>Portail de la Sibérie</span> </span></li></ul>"
      },
      "point": {
        "lon": 130.59800720214844,
        "lat": 42.4463996887207
      }
    },
    {
      "xid": "R9502935",
      "name": "Заповедник «Хуньчунь»",
      "address": {
        "county": "延边朝鲜族自治州",
        "country": "China 中国",
        "country_code": "cn"
      },
      "rate": "2",
      "osm": "relation/9502935",
      "bbox": {
        "lon_min": 130.249615,
        "lon_max": 131.311365,
        "lat_min": 42.418332,
        "lat_max": 43.4751
      },
      "wikidata": "Q60785692",
      "kinds": "natural,interesting_places,nature_reserves,other_nature_conservation_areas",
      "sources": {
        "geometry": "osm",
        "attributes": [
          "osm",
          "wikidata"
        ]
      },
      "otm": "https://opentripmap.com/ru/card/R9502935",
      "wikipedia": "https://en.wikipedia.org/wiki/Hunchun%20National%20Nature%20Reserve",
      "wikipedia_extracts": {
        "title": "en:Hunchun National Nature Reserve",
        "text": "Hunchun National Nature Reserve is a protected area in the Changbai Mountains in northeastern China's Jilin Province. It was established in December 2001 and covers 1,087 km2 (420 sq mi) of deciduous and coniferous forests. Wildlife recorded in the reserve include Siberian tiger, Amur leopard, sika deer, roe deer, red deer and wild boar.",
        "html": "<p><b>Hunchun National Nature Reserve</b> is a protected area in the Changbai Mountains in northeastern China's Jilin Province. It was established in December 2001 and covers 1,087&nbsp;km<sup>2</sup> (420&nbsp;sq&nbsp;mi) of deciduous and coniferous forests. Wildlife recorded in the reserve include Siberian tiger, Amur leopard, sika deer, roe deer, red deer and wild boar.</p>"
      },
      "point": {
        "lon": 131.01837158203125,
        "lat": 42.94913864135742
      }
    },
    {
      "xid": "N6416366397",
      "name": "Dubei Shan",
      "address": {
        "county": "延边朝鲜族自治州",
        "country": "China 中国",
        "country_code": "cn"
      },
      "rate": "2",
      "osm": "node/6416366397",
      "wikidata": "Q28811142",
      "kinds": "mountain_peaks,geological_formations,natural,interesting_places",
      "sources": {
        "geometry": "osm",
        "attributes": [
          "osm",
          "wikidata"
        ]
      },
      "otm": "https://opentripmap.com/ru/card/N6416366397",
      "wikipedia": "https://sv.wikipedia.org/wiki/Dubei%20Shan",
      "wikipedia_extracts": {
        "title": "sv:Dubei Shan",
        "text": "Dubei Shan är ett berg i Kina. Det ligger i provinsen Jilin, i den nordöstra delen av landet, omkring 460 kilometer öster om provinshuvudstaden Changchun. Toppen på Dubei Shan är 1 249 meter över havet.Runt Dubei Shan är det ganska glesbefolkat, med 30 invånare per kvadratkilometer. I omgivningarna runt Dubei Shan växer i huvudsak blandskog.Genomsnittlig årsnederbörd är 946 millimeter. Den regnigaste månaden är juli, med i genomsnitt 197 mm nederbörd, och den torraste är januari, med 6 mm nederbörd.",
        "html": "<p><b>Dubei Shan</b> är ett berg i Kina. Det ligger i provinsen Jilin, i den nordöstra delen av landet, omkring 460 kilometer öster om provinshuvudstaden Changchun. Toppen på Dubei Shan är 1&nbsp;249 meter över havet.</p><p>Runt Dubei Shan är det ganska glesbefolkat, med 30 invånare per kvadratkilometer. I omgivningarna runt Dubei Shan växer i huvudsak blandskog.</p><p>Genomsnittlig årsnederbörd är 946 millimeter. Den regnigaste månaden är juli, med i genomsnitt 197 mm nederbörd, och den torraste är januari, med 6 mm nederbörd.</p>"
      },
      "point": {
        "lon": 130.76385498046875,
        "lat": 43.177486419677734
      }
    },
    {
      "xid": "W37745503",
      "name": "Птичье озеро",
      "address": {
        "city": "Хасанское городское поселение",
        "state": "Приморский край",
        "county": "Хасанский район",
        "country": "Россия",
        "country_code": "ru"
      },
      "rate": "2",
      "osm": "way/37745503",
      "bbox": {
        "lon_min": 130.679722,
        "lon_max": 130.79206,
        "lat_min": 42.471601,
        "lat_max": 42.55365
      },
      "wikidata": "Q4450699",
      "kinds": "water,natural,interesting_places,salt_lakes",
      "sources": {
        "geometry": "osm",
        "attributes": [
          "osm",
          "wikidata"
        ]
      },
      "otm": "https://opentripmap.com/ru/card/W37745503",
      "wikipedia": "https://ru.wikipedia.org/wiki/%D0%9F%D1%82%D0%B8%D1%87%D1%8C%D0%B5%20%28%D0%BE%D0%B7%D0%B5%D1%80%D0%BE%2C%20%D0%9F%D1%80%D0%B8%D0%BC%D0%BE%D1%80%D1%81%D0%BA%D0%B8%D0%B9%20%D0%BA%D1%80%D0%B0%D0%B9%29",
      "wikipedia_extracts": {
        "title": "ru:Птичье (озеро, Приморский край)",
        "text": "Птичье (устар. Тальми) — солёное озеро на юге Приморского края, в Хасанском районе. Площадь поверхности — 36 км², что делает его вторым по показателю в крае.Занимает междуречье рек Болотная и Туманная. Песчаной косой, прорезанной протокой, отделено от моря. Максимальная глубина 1,5 м. Уровень воды в озере во время приливов повышается. Берега низкие, заболоченные. Имеются два крупных полуострова и три небольших островка.Относится к Амурскому бассейновому округу.",
        "html": "<p><b>Птичье</b> (<i>устар.</i> Тальми)&nbsp;— солёное озеро на юге Приморского края, в Хасанском районе. Площадь поверхности&nbsp;— 36 км², что делает его вторым по показателю в крае.</p><p>Занимает междуречье рек Болотная и Туманная. Песчаной косой, прорезанной протокой, отделено от моря. <span>Максимальная глубина 1,5&nbsp;м.</span> Уровень воды в озере во время приливов повышается. Берега низкие, заболоченные. Имеются два крупных полуострова и три небольших островка.</p><p>Относится к Амурскому бассейновому округу.</p>"
      },
      "point": {
        "lon": 130.78038024902344,
        "lat": 42.512596130371094
      }
    },
    {
      "xid": "Q4259077",
      "name": "Леопардовый (заказник)",
      "address": {
        "city": "Барабашское сельское поселение",
        "state": "Приморский край",
        "county": "Хасанский район",
        "country": "Россия",
        "country_code": "ru"
      },
      "rate": "2",
      "wikidata": "Q4259077",
      "kinds": "interesting_places,natural,nature_reserves,other_nature_conservation_areas",
      "sources": {
        "geometry": "wikidata",
        "attributes": [
          "wikidata"
        ]
      },
      "otm": "https://opentripmap.com/ru/card/Q4259077",
      "wikipedia": "https://ru.wikipedia.org/wiki/%D0%9B%D0%B5%D0%BE%D0%BF%D0%B0%D1%80%D0%B4%D0%BE%D0%B2%D1%8B%D0%B9%20%28%D0%B7%D0%B0%D0%BA%D0%B0%D0%B7%D0%BD%D0%B8%D0%BA%29",
      "wikipedia_extracts": {
        "title": "ru:Леопардовый (заказник)",
        "text": "Леопардовый — государственный зоологический заказник. Располагается в южной части Приморского края (Хасанский район, Надеждинский район) вдоль государственной границы с Китаем. Создан в 2008 году. Имеет отведенную площадь 169,5 тыс. га. Образован путём объединения двух других заказников: Барсовый и Борисовское плато для консолидации основных территорий обитания краснокнижного дальневосточного леопарда в рамках одной ООПТ. На юго-востоке граничит с заповедником Кедровая Падь, на территории которого также обитает леопард.",
        "html": "<p><b>Леопардовый</b>&nbsp;— государственный зоологический заказник. Располагается в южной части Приморского края (Хасанский район, Надеждинский район) вдоль государственной границы с Китаем. Создан в 2008 году. Имеет отведенную площадь 169,5 тыс. га. Образован путём объединения двух других заказников: Барсовый и Борисовское плато для консолидации основных территорий обитания краснокнижного дальневосточного леопарда в рамках одной ООПТ. На юго-востоке граничит с заповедником Кедровая Падь, на территории которого также обитает леопард.</p>"
      },
      "point": {
        "lon": 131.3000030517578,
        "lat": 43.20000076293945
      }
    },
    {
      "xid": "Q4129518",
      "name": "Высотная (гора)",
      "address": {
        "county": "延边朝鲜族自治州",
        "country": "China 中国",
        "country_code": "cn"
      },
      "rate": "2",
      "wikidata": "Q4129518",
      "kinds": "mountain_peaks,interesting_places,natural,geological_formations",
      "sources": {
        "geometry": "wikidata",
        "attributes": [
          "wikidata"
        ]
      },
      "otm": "https://opentripmap.com/ru/card/Q4129518",
      "wikipedia": "https://ru.wikipedia.org/wiki/%D0%92%D1%8B%D1%81%D0%BE%D1%82%D0%BD%D0%B0%D1%8F%20%28%D0%B3%D0%BE%D1%80%D0%B0%29",
      "wikipedia_extracts": {
        "title": "ru:Высотная (гора)",
        "text": "Высотная — высочайшая вершина Чёрных гор (996 м), самая высокая точка Российско-Китайской границы на Дальнем Востоке. Высшая точка Хасанского района Приморского края. Находится на водоразделе рек Нарва и Хуньчуньхэ. Покрыта широколиственным лесом, выше 600 м — смешанным. Видна с акватории залива Петра Великого.",
        "html": "<p><b>Высотная</b>&nbsp;— высочайшая вершина Чёрных гор (996 м), самая высокая точка Российско-Китайской границы на Дальнем Востоке. Высшая точка Хасанского района Приморского края. Находится на водоразделе рек Нарва и Хуньчуньхэ. Покрыта широколиственным лесом, выше 600 м&nbsp;— смешанным. Видна с акватории залива Петра Великого.</p>"
      },
      "point": {
        "lon": 131.14999389648438,
        "lat": 43.099998474121094
      }
    },
    {
      "xid": "Q30890090",
      "name": "Голубиный Утёс",
      "address": {
        "city": "Хасанское городское поселение",
        "state": "Приморский край",
        "county": "Хасанский район",
        "country": "Россия",
        "country_code": "ru"
      },
      "rate": "2",
      "wikidata": "Q30890090",
      "kinds": "interesting_places,natural,nature_reserves,other_nature_conservation_areas",
      "sources": {
        "geometry": "wikidata",
        "attributes": [
          "wikidata"
        ]
      },
      "otm": "https://opentripmap.com/ru/card/Q30890090",
      "wikipedia": "https://ru.wikipedia.org/wiki/%D0%93%D0%BE%D0%BB%D1%83%D0%B1%D0%B8%D0%BD%D1%8B%D0%B9%20%D0%A3%D1%82%D1%91%D1%81",
      "wikipedia_extracts": {
        "title": "ru:Голубиный Утёс",
        "text": "Голубиный Утёс — памятник природы, находится в 8 км к юго-востоку от озера Хасан в Приморском крае, Россия. Охранная зона памятника составляет 200 метров.Утёс имеет высоту около 180 метров. Склоны покрыты редколесьем и кустарником. Восточный склон, обращённый к морю, обрывист и скалист. Рефугиум западнопацифических теплоумеренных реликтовых видов растений на юге российского Дальнего Востока. У подножья утёса находится зимовка змей.Голубиный утёс имеет историческое значение: здесь происходили бои во время пограничного инцидента 1938-го года.",
        "html": "<p><b>Голубиный Утёс</b>&nbsp;— памятник природы, находится в 8&nbsp;км к юго-востоку от озера Хасан в Приморском крае, Россия. Охранная зона памятника составляет 200 метров.</p><p>Утёс имеет высоту около 180 метров. Склоны покрыты редколесьем и кустарником. Восточный склон, обращённый к морю, обрывист и скалист. Рефугиум западнопацифических теплоумеренных реликтовых видов растений на юге российского Дальнего Востока. У подножья утёса находится зимовка змей.</p><p>Голубиный утёс имеет историческое значение: здесь происходили бои во время пограничного инцидента 1938-го года.</p>"
      },
      "point": {
        "lon": 130.74972534179688,
        "lat": 42.41638946533203
      }
    },
    {
      "xid": "U720",
      "name": "Вулканы полуострова Краббе",
      "address": {
        "city": "Посьетское городское поселение",
        "state": "Приморский край",
        "county": "Хасанский район",
        "country": "Россия",
        "country_code": "ru"
      },
      "rate": "1h",
      "kinds": "rock_formations,natural_monuments,natural,interesting_places,geological_formations,nature_reserves",
      "sources": {
        "geometry": "osm",
        "attributes": [
          "rosnedra"
        ]
      },
      "otm": "https://opentripmap.com/ru/card/U720",
      "info": {
        "src": "rosnedra",
        "url": "http://www.geomem.ru/Vulkany-poluostrova-Krabbe",
        "descr": "Полуостров Краббе – это группа древних вулканов, прекративших свою активную деятельность  50 млн. лет назад. Они обусловили своеобразный и неповторимый  современный вид полуострова. Древняя вулканическая деятельность (особенно  у м.  Дегера) обусловила образование большого количества красивейших береговых  и  стоящих в море причудливых скал  с гротами, арками и пещерами. Из-за своей красоты, этот участок получил название Берег Каменной сказки. <br>\nУ мыса Дегера в бухте Агатовой, располагается уникальное месторождение поделочных  камней -  агатов, опалов, халцедонов, яшмы.\n\n",
        "src_id": 616
      },
      "point": {
        "lon": 130.9219970703125,
        "lat": 42.59299850463867
      }
    },
    {
      "xid": "U721",
      "name": "Крепость-экзотические скалы",
      "address": {
        "city": "Славянское городское поселение",
        "state": "Приморский край",
        "county": "Хасанский район",
        "country": "Россия",
        "country_code": "ru"
      },
      "rate": "1h",
      "kinds": "rock_formations,natural_monuments,natural,interesting_places,geological_formations,nature_reserves",
      "sources": {
        "geometry": "osm",
        "attributes": [
          "rosnedra"
        ]
      },
      "otm": "https://opentripmap.com/ru/card/U721",
      "info": {
        "src": "rosnedra",
        "url": "http://www.geomem.ru/Krepost-ehkzoticheskie-skaly",
        "descr": "Это сравнительно тонкая высокая скальная стенка, напоминающая старую разрушенную кладку. Этим и объясняется название скал. Скалы проходят по самому гребню сопки. Подниматься к скалам лучше по самому гребню со стороны трассы или с противоположной, мимо садовых участков дорога поднимается к самому гребню. Лучший вид на скалы и окрестности открывается с самой высокой точки сопки, на ней стоит геодезический знак.",
        "src_id": 618
      },
      "point": {
        "lon": 131.3000030517578,
        "lat": 42.88999938964844
      }
    },
    {
      "xid": "U1690",
      "name": "Лечебно-оздоровительная местность месторождения лечебных грязей «Ясное»",
      "address": {
        "state": "Приморский край",
        "country": "Россия",
        "country_code": "ru"
      },
      "rate": "1h",
      "kinds": "aquatic_protected_areas,natural_monuments,natural,interesting_places,nature_reserves",
      "sources": {
        "geometry": "osm",
        "attributes": [
          "rosnedra"
        ]
      },
      "otm": "https://opentripmap.com/ru/card/U1690",
      "info": {
        "src": "rosnedra",
        "url": "http://www.geomem.ru/Lechebno-ozdorovitelnaya-mestnost-lechebnyh-gryazej-YAsnoe",
        "descr": "Месторождение лечебных грязей «Ясное» обусловлено наличием в бухте морских иловых сульфидных лечебных грязей, обладающих бальнеологическими свойствами, аналогичными лечебным грязям зал. Углового в Амурском заливе. Прогнозные ресурсы лечебных грязей месторождения составляют 165 млн. тонн.",
        "src_id": 2306
      },
      "point": {
        "lon": 130.92799377441406,
        "lat": 42.6349983215332
      }
    },
    {
      "xid": "U2497",
      "name": "Вулканы полуострова Краббе",
      "address": {
        "city": "Посьетское городское поселение",
        "state": "Приморский край",
        "county": "Хасанский район",
        "country": "Россия",
        "country_code": "ru"
      },
      "rate": "1h",
      "kinds": "rock_formations,natural_monuments,natural,interesting_places,geological_formations,nature_reserves",
      "sources": {
        "geometry": "osm",
        "attributes": [
          "rosnedra"
        ]
      },
      "otm": "https://opentripmap.com/ru/card/U2497",
      "info": {
        "src": "rosnedra",
        "url": "http://www.geomem.ru/Vulkany-poluostrova-Krabbe",
        "descr": "Полуостров Краббе – это группа древних вулканов, прекративших свою активную деятельность  50 млн. лет назад. Они обусловили своеобразный и неповторимый  современный вид полуострова. Древняя вулканическая деятельность (особенно  у м.  Дегера) обусловила образование большого количества красивейших береговых  и  стоящих в море причудливых скал  с гротами, арками и пещерами. Из-за своей красоты, этот участок получил название Берег Каменной сказки. <br>\nУ мыса Дегера в бухте Агатовой, располагается уникальное месторождение поделочных  камней -  агатов, опалов, халцедонов, яшмы.\n\n",
        "src_id": 616
      },
      "point": {
        "lon": 130.9219970703125,
        "lat": 42.59299850463867
      }
    },
    {
      "xid": "U2498",
      "name": "Крепость-экзотические скалы",
      "address": {
        "city": "Славянское городское поселение",
        "state": "Приморский край",
        "county": "Хасанский район",
        "country": "Россия",
        "country_code": "ru"
      },
      "rate": "1h",
      "kinds": "rock_formations,natural_monuments,natural,interesting_places,geological_formations,nature_reserves",
      "sources": {
        "geometry": "osm",
        "attributes": [
          "rosnedra"
        ]
      },
      "otm": "https://opentripmap.com/ru/card/U2498",
      "info": {
        "src": "rosnedra",
        "url": "http://www.geomem.ru/Krepost-ehkzoticheskie-skaly",
        "descr": "Это сравнительно тонкая высокая скальная стенка, напоминающая старую разрушенную кладку. Этим и объясняется название скал. Скалы проходят по самому гребню сопки. Подниматься к скалам лучше по самому гребню со стороны трассы или с противоположной, мимо садовых участков дорога поднимается к самому гребню. Лучший вид на скалы и окрестности открывается с самой высокой точки сопки, на ней стоит геодезический знак.",
        "src_id": 618
      },
      "point": {
        "lon": 131.3000030517578,
        "lat": 42.88999938964844
      }
    },
    {
      "xid": "U3392",
      "name": "Лечебно-оздоровительная местность месторождения лечебных грязей «Ясное»",
      "address": {
        "state": "Приморский край",
        "country": "Россия",
        "country_code": "ru"
      },
      "rate": "1h",
      "kinds": "aquatic_protected_areas,natural_monuments,natural,interesting_places,nature_reserves",
      "sources": {
        "geometry": "osm",
        "attributes": [
          "rosnedra"
        ]
      },
      "otm": "https://opentripmap.com/ru/card/U3392",
      "info": {
        "src": "rosnedra",
        "url": "http://www.geomem.ru/Lechebno-ozdorovitelnaya-mestnost-lechebnyh-gryazej-YAsnoe",
        "descr": "Месторождение лечебных грязей «Ясное» обусловлено наличием в бухте морских иловых сульфидных лечебных грязей, обладающих бальнеологическими свойствами, аналогичными лечебным грязям зал. Углового в Амурском заливе. Прогнозные ресурсы лечебных грязей месторождения составляют 165 млн. тонн.",
        "src_id": 2306
      },
      "point": {
        "lon": 130.92799377441406,
        "lat": 42.6349983215332
      }
    },
    {
      "xid": "N1536601249",
      "name": "田家山",
      "address": {
        "city": "敬信镇",
        "county": "延边朝鲜族自治州",
        "country": "China 中国",
        "country_code": "cn"
      },
      "rate": "1",
      "osm": "node/1536601249",
      "kinds": "mountain_peaks,geological_formations,natural,interesting_places",
      "sources": {
        "geometry": "osm",
        "attributes": [
          "osm"
        ]
      },
      "otm": "https://opentripmap.com/ru/card/N1536601249",
      "point": {
        "lon": 130.5619354248047,
        "lat": 42.530765533447266
      }
    },
    {
      "xid": "N1536601240",
      "name": "依岗嘴子",
      "address": {
        "city": "敬信镇",
        "road": "S201",
        "county": "延边朝鲜族自治州",
        "country": "China 中国",
        "country_code": "cn"
      },
      "rate": "1",
      "osm": "node/1536601240",
      "kinds": "mountain_peaks,geological_formations,natural,interesting_places",
      "sources": {
        "geometry": "osm",
        "attributes": [
          "osm"
        ]
      },
      "otm": "https://opentripmap.com/ru/card/N1536601240",
      "point": {
        "lon": 130.55397033691406,
        "lat": 42.52059555053711
      }
    },
    {
      "xid": "N9010145390",
      "name": "沙漠峰",
      "address": {
        "city": "敬信镇",
        "county": "延边朝鲜族自治州",
        "country": "China 中国",
        "country_code": "cn"
      },
      "rate": "1",
      "osm": "node/9010145390",
      "kinds": "mountain_peaks,geological_formations,natural,interesting_places",
      "sources": {
        "geometry": "osm",
        "attributes": [
          "osm"
        ]
      },
      "otm": "https://opentripmap.com/ru/card/N9010145390",
      "point": {
        "lon": 130.57867431640625,
        "lat": 42.45674133300781
      }
    },
    {
      "xid": "N7682306258",
      "name": "высота Безымянная",
      "address": {
        "city": "敬信镇",
        "road": "S201",
        "county": "延边朝鲜族自治州",
        "country": "China 中国",
        "country_code": "cn"
      },
      "rate": "1",
      "osm": "node/7682306258",
      "kinds": "mountain_peaks,geological_formations,natural,interesting_places",
      "sources": {
        "geometry": "osm",
        "attributes": [
          "osm"
        ]
      },
      "otm": "https://opentripmap.com/ru/card/N7682306258",
      "point": {
        "lon": 130.58053588867188,
        "lat": 42.468292236328125
      }
    },
    {
      "xid": "W836291021",
      "name": "西架山沙洲",
      "address": {
        "city": "敬信镇",
        "county": "延边朝鲜族自治州",
        "country": "China 中国",
        "country_code": "cn"
      },
      "rate": "1",
      "osm": "way/836291021",
      "bbox": {
        "lon_min": 130.379149,
        "lon_max": 130.399722,
        "lat_min": 42.598643,
        "lat_max": 42.604937
      },
      "kinds": "natural,interesting_places,beaches,other_beaches",
      "sources": {
        "geometry": "osm",
        "attributes": [
          "osm"
        ]
      },
      "otm": "https://opentripmap.com/ru/card/W836291021",
      "point": {
        "lon": 130.3951873779297,
        "lat": 42.60177230834961
      }
    },
    {
      "xid": "N9010145391",
      "name": "桧忠源北山",
      "address": {
        "city": "敬信镇",
        "county": "延边朝鲜族自治州",
        "country": "China 中国",
        "country_code": "cn"
      },
      "rate": "1",
      "osm": "node/9010145391",
      "kinds": "mountain_peaks,geological_formations,natural,interesting_places",
      "sources": {
        "geometry": "osm",
        "attributes": [
          "osm"
        ]
      },
      "otm": "https://opentripmap.com/ru/card/N9010145391",
      "point": {
        "lon": 130.55519104003906,
        "lat": 42.540706634521484
      }
    },
    {
      "xid": "N1536601297",
      "name": "连城山",
      "address": {
        "city": "Хасанское городское поселение",
        "state": "Приморский край",
        "county": "Хасанский район",
        "country": "Россия",
        "country_code": "ru"
      },
      "rate": "1",
      "osm": "node/1536601297",
      "kinds": "mountain_peaks,geological_formations,natural,interesting_places",
      "sources": {
        "geometry": "osm",
        "attributes": [
          "osm"
        ]
      },
      "otm": "https://opentripmap.com/ru/card/N1536601297",
      "point": {
        "lon": 130.6035614013672,
        "lat": 42.55261993408203
      }
    },
    {
      "xid": "N9010145395",
      "name": "老龙山",
      "address": {
        "city": "Краскинское городское поселение",
        "state": "Приморский край",
        "county": "Хасанский район",
        "country": "Россия",
        "country_code": "ru"
      },
      "rate": "1",
      "osm": "node/9010145395",
      "kinds": "mountain_peaks,geological_formations,natural,interesting_places",
      "sources": {
        "geometry": "osm",
        "attributes": [
          "osm"
        ]
      },
      "otm": "https://opentripmap.com/ru/card/N9010145395",
      "point": {
        "lon": 130.6042022705078,
        "lat": 42.63628005981445
      }
    },
    {
      "xid": "N9010145393",
      "name": "城北山",
      "address": {
        "city": "敬信镇",
        "county": "延边朝鲜族自治州",
        "country": "China 中国",
        "country_code": "cn"
      },
      "rate": "1",
      "osm": "node/9010145393",
      "kinds": "mountain_peaks,geological_formations,natural,interesting_places",
      "sources": {
        "geometry": "osm",
        "attributes": [
          "osm"
        ]
      },
      "otm": "https://opentripmap.com/ru/card/N9010145393",
      "point": {
        "lon": 130.60546875,
        "lat": 42.56425094604492
      }
    },
    {
      "xid": "N309605425",
      "name": "星山",
      "address": {
        "city": "敬信镇",
        "county": "延边朝鲜族自治州",
        "country": "China 中国",
        "country_code": "cn"
      },
      "rate": "1",
      "osm": "node/309605425",
      "kinds": "mountain_peaks,geological_formations,natural,interesting_places",
      "sources": {
        "geometry": "osm",
        "attributes": [
          "osm"
        ]
      },
      "otm": "https://opentripmap.com/ru/card/N309605425",
      "point": {
        "lon": 130.61614990234375,
        "lat": 42.57135009765625
      }
    },
    {
      "xid": "N3046958289",
      "name": "Дракон",
      "address": {
        "city": "Посьетское городское поселение",
        "state": "Приморский край",
        "county": "Хасанский район",
        "country": "Россия",
        "country_code": "ru"
      },
      "rate": "1",
      "osm": "node/3046958289",
      "kinds": "mountain_peaks,geological_formations,natural,interesting_places",
      "sources": {
        "geometry": "osm",
        "attributes": [
          "osm"
        ]
      },
      "otm": "https://opentripmap.com/ru/card/N3046958289",
      "point": {
        "lon": 130.92979431152344,
        "lat": 42.60905838012695
      }
    },
    {
      "xid": "W605285024",
      "name": "Леопардовый заповедник",
      "address": {
        "city": "Зарубинское городское поселение",
        "state": "Приморский край",
        "county": "Хасанский район",
        "country": "Россия",
        "country_code": "ru"
      },
      "rate": "1",
      "osm": "way/605285024",
      "bbox": {
        "lon_min": 131.164743,
        "lon_max": 131.201633,
        "lat_min": 42.64354,
        "lat_max": 42.66464
      },
      "kinds": "natural,interesting_places,nature_reserves,other_nature_conservation_areas",
      "sources": {
        "geometry": "osm",
        "attributes": [
          "osm"
        ]
      },
      "otm": "https://opentripmap.com/ru/card/W605285024",
      "point": {
        "lon": 131.1786346435547,
        "lat": 42.65318298339844
      }
    },
    {
      "xid": "N1550081472",
      "name": "Туманная гора",
      "address": {
        "city": "Зарубинское городское поселение",
        "state": "Приморский край",
        "county": "Хасанский район",
        "suburb": "Маяк Гамов",
        "country": "Россия",
        "postcode": "692726",
        "country_code": "ru"
      },
      "rate": "1",
      "osm": "node/1550081472",
      "kinds": "mountain_peaks,geological_formations,natural,interesting_places",
      "sources": {
        "geometry": "osm",
        "attributes": [
          "osm"
        ]
      },
      "otm": "https://opentripmap.com/ru/card/N1550081472",
      "point": {
        "lon": 131.18862915039062,
        "lat": 42.57719421386719
      }
    },
    {
      "xid": "N5741179753",
      "name": "Пещера леопарда",
      "address": {
        "city": "Зарубинское городское поселение",
        "state": "Приморский край",
        "county": "Хасанский район",
        "country": "Россия",
        "country_code": "ru"
      },
      "rate": "1",
      "osm": "node/5741179753",
      "kinds": "geological_formations,natural,interesting_places,caves",
      "sources": {
        "geometry": "osm",
        "attributes": [
          "osm"
        ]
      },
      "otm": "https://opentripmap.com/ru/card/N5741179753",
      "point": {
        "lon": 131.21839904785156,
        "lat": 42.65074920654297
      }
    },
    {
      "xid": "N7401028476",
      "name": "грот им. Юрия Гагарина",
      "address": {
        "city": "Зарубинское городское поселение",
        "state": "Приморский край",
        "county": "Хасанский район",
        "country": "Россия",
        "country_code": "ru"
      },
      "rate": "1",
      "osm": "node/7401028476",
      "kinds": "geological_formations,natural,interesting_places,caves",
      "sources": {
        "geometry": "osm",
        "attributes": [
          "osm"
        ]
      },
      "otm": "https://opentripmap.com/ru/card/N7401028476",
      "point": {
        "lon": 131.22413635253906,
        "lat": 42.652191162109375
      }
    },
    {
      "xid": "N6416366398",
      "name": "Huangsong Dianzi",
      "address": {
        "county": "延边朝鲜族自治州",
        "country": "China 中国",
        "country_code": "cn"
      },
      "rate": "1",
      "osm": "node/6416366398",
      "kinds": "mountain_peaks,geological_formations,natural,interesting_places",
      "sources": {
        "geometry": "osm",
        "attributes": [
          "osm"
        ]
      },
      "otm": "https://opentripmap.com/ru/card/N6416366398",
      "point": {
        "lon": 130.7041015625,
        "lat": 43.20645523071289
      }
    },
    {
      "xid": "N8704097396",
      "name": "Высотная гора",
      "address": {
        "county": "延边朝鲜族自治州",
        "country": "China 中国",
        "country_code": "cn"
      },
      "rate": "1",
      "osm": "node/8704097396",
      "kinds": "mountain_peaks,geological_formations,natural,interesting_places",
      "sources": {
        "geometry": "osm",
        "attributes": [
          "osm"
        ]
      },
      "otm": "https://opentripmap.com/ru/card/N8704097396",
      "point": {
        "lon": 131.16029357910156,
        "lat": 43.10019302368164
      }
    },
    {
      "xid": "N9010145394",
      "name": "圆山",
      "address": {
        "city": "敬信镇",
        "county": "延边朝鲜族自治州",
        "country": "China 中国",
        "country_code": "cn"
      },
      "rate": "1",
      "osm": "node/9010145394",
      "kinds": "mountain_peaks,geological_formations,natural,interesting_places",
      "sources": {
        "geometry": "osm",
        "attributes": [
          "osm"
        ]
      },
      "otm": "https://opentripmap.com/ru/card/N9010145394",
      "point": {
        "lon": 130.62005615234375,
        "lat": 42.579715728759766
      }
    },
    {
      "xid": "N9010145389",
      "name": "防川后山",
      "address": {
        "city": "敬信镇",
        "county": "延边朝鲜族自治州",
        "country": "China 中国",
        "country_code": "cn"
      },
      "rate": "1",
      "osm": "node/9010145389",
      "kinds": "mountain_peaks,geological_formations,natural,interesting_places",
      "sources": {
        "geometry": "osm",
        "attributes": [
          "osm"
        ]
      },
      "otm": "https://opentripmap.com/ru/card/N9010145389",
      "point": {
        "lon": 130.59091186523438,
        "lat": 42.438411712646484
      }
    },
    {
      "xid": "N7054898553",
      "name": "Сопка Заозёрная",
      "address": {
        "city": "Хасанское городское поселение",
        "state": "Приморский край",
        "county": "Хасанский район",
        "country": "Россия",
        "country_code": "ru"
      },
      "rate": "1",
      "osm": "node/7054898553",
      "kinds": "mountain_peaks,geological_formations,natural,interesting_places",
      "sources": {
        "geometry": "osm",
        "attributes": [
          "osm"
        ]
      },
      "otm": "https://opentripmap.com/ru/card/N7054898553",
      "point": {
        "lon": 130.5947265625,
        "lat": 42.44646453857422
      }
    },
    {
      "xid": "N7054842481",
      "name": "Сопка Безымянная-川北岗",
      "address": {
        "county": "延边朝鲜族自治州",
        "country": "China 中国",
        "village": "防川",
        "country_code": "cn"
      },
      "rate": "1",
      "osm": "node/7054842481",
      "kinds": "mountain_peaks,geological_formations,natural,interesting_places",
      "sources": {
        "geometry": "osm",
        "attributes": [
          "osm"
        ]
      },
      "otm": "https://opentripmap.com/ru/card/N7054842481",
      "point": {
        "lon": 130.59091186523438,
        "lat": 42.4630126953125
      }
    },
    {
      "xid": "N1536601204",
      "name": "沙包子",
      "address": {
        "city": "敬信镇",
        "road": "S201",
        "county": "延边朝鲜族自治州",
        "country": "China 中国",
        "country_code": "cn"
      },
      "rate": "1",
      "osm": "node/1536601204",
      "kinds": "mountain_peaks,geological_formations,natural,interesting_places",
      "sources": {
        "geometry": "osm",
        "attributes": [
          "osm"
        ]
      },
      "otm": "https://opentripmap.com/ru/card/N1536601204",
      "point": {
        "lon": 130.56285095214844,
        "lat": 42.50114059448242
      }
    },
    {
      "xid": "N7678760080",
      "name": "回龙岭",
      "address": {
        "city": "Хасанское городское поселение",
        "state": "Приморский край",
        "county": "Хасанский район",
        "country": "Россия",
        "country_code": "ru"
      },
      "rate": "1",
      "osm": "node/7678760080",
      "kinds": "mountain_peaks,geological_formations,natural,interesting_places",
      "sources": {
        "geometry": "osm",
        "attributes": [
          "osm"
        ]
      },
      "otm": "https://opentripmap.com/ru/card/N7678760080",
      "point": {
        "lon": 130.56289672851562,
        "lat": 42.518463134765625
      }
    },
    {
      "xid": "N1536600790",
      "name": "吴岗",
      "address": {
        "city": "敬信镇",
        "road": "S201",
        "county": "延边朝鲜族自治州",
        "country": "China 中国",
        "country_code": "cn"
      },
      "rate": "1",
      "osm": "node/1536600790",
      "kinds": "mountain_peaks,geological_formations,natural,interesting_places",
      "sources": {
        "geometry": "osm",
        "attributes": [
          "osm"
        ]
      },
      "otm": "https://opentripmap.com/ru/card/N1536600790",
      "point": {
        "lon": 130.63197326660156,
        "lat": 42.427371978759766
      }
    },
    {
      "xid": "N9010163017",
      "name": "三叉峰",
      "address": {
        "city": "敬信镇",
        "road": "S201",
        "county": "延边朝鲜族自治州",
        "country": "China 中国",
        "country_code": "cn"
      },
      "rate": "1",
      "osm": "node/9010163017",
      "kinds": "mountain_peaks,geological_formations,natural,interesting_places",
      "sources": {
        "geometry": "osm",
        "attributes": [
          "osm"
        ]
      },
      "otm": "https://opentripmap.com/ru/card/N9010163017",
      "point": {
        "lon": 130.61090087890625,
        "lat": 42.434791564941406
      }
    },
    {
      "xid": "N2266842559",
      "name": "Голубиный Утёс",
      "address": {
        "city": "Хасанское городское поселение",
        "state": "Приморский край",
        "county": "Хасанский район",
        "country": "Россия",
        "country_code": "ru"
      },
      "rate": "1",
      "osm": "node/2266842559",
      "kinds": "mountain_peaks,geological_formations,natural,interesting_places",
      "sources": {
        "geometry": "osm",
        "attributes": [
          "osm"
        ]
      },
      "otm": "https://opentripmap.com/ru/card/N2266842559",
      "point": {
        "lon": 130.7501678466797,
        "lat": 42.418426513671875
      }
    },
    {
      "xid": "N4822033647",
      "name": "Сопка Сюдари",
      "address": {
        "city": "Хасанское городское поселение",
        "state": "Приморский край",
        "county": "Хасанский район",
        "country": "Россия",
        "country_code": "ru"
      },
      "rate": "1",
      "osm": "node/4822033647",
      "kinds": "mountain_peaks,geological_formations,natural,interesting_places",
      "sources": {
        "geometry": "osm",
        "attributes": [
          "osm"
        ]
      },
      "otm": "https://opentripmap.com/ru/card/N4822033647",
      "point": {
        "lon": 130.73886108398438,
        "lat": 42.44148254394531
      }
    },
    {
      "xid": "N2155745974",
      "name": "гора Луна",
      "address": {
        "county": "延边朝鲜族自治州",
        "country": "China 中国",
        "country_code": "cn"
      },
      "rate": "1",
      "osm": "node/2155745974",
      "kinds": "mountain_peaks,geological_formations,natural,interesting_places",
      "sources": {
        "geometry": "osm",
        "attributes": [
          "osm"
        ]
      },
      "otm": "https://opentripmap.com/ru/card/N2155745974",
      "point": {
        "lon": 130.71107482910156,
        "lat": 42.829872131347656
      }
    },
    {
      "xid": "N2155746189",
      "name": "гора Семёновский Базар",
      "address": {
        "county": "延边朝鲜族自治州",
        "country": "China 中国",
        "country_code": "cn"
      },
      "rate": "1",
      "osm": "node/2155746189",
      "kinds": "mountain_peaks,geological_formations,natural,interesting_places",
      "sources": {
        "geometry": "osm",
        "attributes": [
          "osm"
        ]
      },
      "otm": "https://opentripmap.com/ru/card/N2155746189",
      "point": {
        "lon": 130.74703979492188,
        "lat": 42.842777252197266
      }
    },
    {
      "xid": "N3372196058",
      "name": "Dahuanggoudong Shan",
      "address": {
        "county": "延边朝鲜族自治州",
        "country": "China 中国",
        "village": "东沟",
        "country_code": "cn"
      },
      "rate": "1",
      "osm": "node/3372196058",
      "kinds": "mountain_peaks,geological_formations,natural,interesting_places",
      "sources": {
        "geometry": "osm",
        "attributes": [
          "osm"
        ]
      },
      "otm": "https://opentripmap.com/ru/card/N3372196058",
      "point": {
        "lon": 130.43357849121094,
        "lat": 43.133888244628906
      }
    },
    {
      "xid": "W491536702",
      "name": "Пляж \"Черные пески\"",
      "address": {
        "city": "Зарубинское городское поселение",
        "state": "Приморский край",
        "county": "Хасанский район",
        "country": "Россия",
        "country_code": "ru"
      },
      "rate": "1",
      "osm": "way/491536702",
      "bbox": {
        "lon_min": 131.042945,
        "lon_max": 131.048072,
        "lat_min": 42.636204,
        "lat_max": 42.637882
      },
      "kinds": "natural,interesting_places,beaches,other_beaches",
      "sources": {
        "geometry": "osm",
        "attributes": [
          "osm"
        ]
      },
      "otm": "https://opentripmap.com/ru/card/W491536702",
      "point": {
        "lon": 131.0441131591797,
        "lat": 42.637054443359375
      }
    },
    {
      "xid": "R6266719",
      "name": "Пляж \"Хорс\"",
      "address": {
        "city": "Посьетское городское поселение",
        "state": "Приморский край",
        "county": "Хасанский район",
        "country": "Россия",
        "postcode": "692713",
        "country_code": "ru"
      },
      "rate": "1",
      "osm": "relation/6266719",
      "bbox": {
        "lon_min": 130.965053,
        "lon_max": 130.998661,
        "lat_min": 42.637927,
        "lat_max": 42.648476
      },
      "kinds": "natural,interesting_places,beaches,other_beaches",
      "sources": {
        "geometry": "osm",
        "attributes": [
          "osm"
        ]
      },
      "otm": "https://opentripmap.com/ru/card/R6266719",
      "point": {
        "lon": 130.97079467773438,
        "lat": 42.643272399902344
      }
    },
    {
      "xid": "W174753312",
      "name": "Муниципальный пляж",
      "address": {
        "road": "Камышовая улица",
        "state": "Приморский край",
        "county": "Хасанский район",
        "hamlet": "Витязь",
        "country": "Россия",
        "postcode": "692726",
        "country_code": "ru"
      },
      "rate": "1",
      "osm": "way/174753312",
      "bbox": {
        "lon_min": 131.174202,
        "lon_max": 131.18531,
        "lat_min": 42.601597,
        "lat_max": 42.606019
      },
      "kinds": "natural,interesting_places,beaches,other_beaches",
      "sources": {
        "geometry": "osm",
        "attributes": [
          "osm"
        ]
      },
      "otm": "https://opentripmap.com/ru/card/W174753312",
      "point": {
        "lon": 131.18392944335938,
        "lat": 42.603759765625
      }
    },
    {
      "xid": "R2348090",
      "name": "Пляж платная зана отдыха",
      "address": {
        "city": "Славянское городское поселение",
        "state": "Приморский край",
        "county": "Хасанский район",
        "country": "Россия",
        "country_code": "ru"
      },
      "rate": "1",
      "osm": "relation/2348090",
      "bbox": {
        "lon_min": 131.350256,
        "lon_max": 131.379208,
        "lat_min": 42.80808,
        "lat_max": 42.839213
      },
      "kinds": "natural,interesting_places,beaches,other_beaches",
      "sources": {
        "geometry": "osm",
        "attributes": [
          "osm"
        ]
      },
      "otm": "https://opentripmap.com/ru/card/R2348090",
      "point": {
        "lon": 131.35089111328125,
        "lat": 42.81001663208008
      }
    },
    {
      "xid": "R9301876",
      "name": "Хасанский природный парк",
      "address": {
        "city": "Хасанское городское поселение",
        "state": "Приморский край",
        "county": "Хасанский район",
        "country": "Россия",
        "country_code": "ru"
      },
      "rate": "1",
      "osm": "relation/9301876",
      "bbox": {
        "lon_min": 130.635574,
        "lon_max": 130.788631,
        "lat_min": 42.294063,
        "lat_max": 42.479879
      },
      "kinds": "natural,interesting_places,nature_reserves,other_nature_conservation_areas",
      "sources": {
        "geometry": "osm",
        "attributes": [
          "osm"
        ]
      },
      "otm": "https://opentripmap.com/ru/card/R9301876",
      "point": {
        "lon": 130.720947265625,
        "lat": 42.38446807861328
      }
    },
    {
      "xid": "N7809634371",
      "name": "三泡峰（将军峰）",
      "address": {
        "county": "延边朝鲜族自治州",
        "country": "China 中国",
        "village": "防川",
        "country_code": "cn"
      },
      "rate": "1",
      "osm": "node/7809634371",
      "kinds": "mountain_peaks,geological_formations,natural,interesting_places",
      "sources": {
        "geometry": "osm",
        "attributes": [
          "osm"
        ]
      },
      "otm": "https://opentripmap.com/ru/card/N7809634371",
      "point": {
        "lon": 130.586181640625,
        "lat": 42.447364807128906
      }
    },
    {
      "xid": "R6406177",
      "name": "Золотые пески",
      "address": {
        "city": "Славянское городское поселение",
        "state": "Приморский край",
        "county": "Хасанский район",
        "country": "Россия",
        "country_code": "ru"
      },
      "rate": "1",
      "osm": "relation/6406177",
      "bbox": {
        "lon_min": 131.289801,
        "lon_max": 131.329102,
        "lat_min": 42.791206,
        "lat_max": 42.794727
      },
      "kinds": "natural,interesting_places,beaches,other_beaches",
      "sources": {
        "geometry": "osm",
        "attributes": [
          "osm"
        ]
      },
      "otm": "https://opentripmap.com/ru/card/R6406177",
      "point": {
        "lon": 131.29808044433594,
        "lat": 42.79296112060547
      }
    },
    {
      "xid": "W197551387",
      "name": "Lake Lebedinoye",
      "address": {
        "city": "Хасанское городское поселение",
        "state": "Приморский край",
        "county": "Хасанский район",
        "country": "Россия",
        "country_code": "ru"
      },
      "rate": "1",
      "osm": "way/197551387",
      "bbox": {
        "lon_min": 130.674187,
        "lon_max": 130.717563,
        "lat_min": 42.312961,
        "lat_max": 42.335318
      },
      "kinds": "water,natural,interesting_places,salt_lakes",
      "sources": {
        "geometry": "osm",
        "attributes": [
          "osm"
        ]
      },
      "otm": "https://opentripmap.com/ru/card/W197551387",
      "point": {
        "lon": 130.71046447753906,
        "lat": 42.32415771484375
      }
    },
    {
      "xid": "W37745577",
      "name": "озеро Вторая Протока",
      "address": {
        "city": "Хасанское городское поселение",
        "state": "Приморский край",
        "county": "Хасанский район",
        "country": "Россия",
        "country_code": "ru"
      },
      "rate": "1",
      "osm": "way/37745577",
      "bbox": {
        "lon_min": 130.711612,
        "lon_max": 130.75293,
        "lat_min": 42.366449,
        "lat_max": 42.374589
      },
      "kinds": "water,natural,interesting_places,salt_lakes",
      "sources": {
        "geometry": "osm",
        "attributes": [
          "osm"
        ]
      },
      "otm": "https://opentripmap.com/ru/card/W37745577",
      "point": {
        "lon": 130.7462615966797,
        "lat": 42.37060546875
      }
    },
    {
      "xid": "R4122321",
      "name": "",
      "address": {
        "city": "Хасанское городское поселение",
        "state": "Приморский край",
        "county": "Хасанский район",
        "country": "Россия",
        "country_code": "ru"
      },
      "rate": "0",
      "osm": "relation/4122321",
      "bbox": {
        "lon_min": 130.770283,
        "lon_max": 130.791365,
        "lat_min": 42.572841,
        "lat_max": 42.60087
      },
      "kinds": "natural,interesting_places,beaches,other_beaches",
      "sources": {
        "geometry": "osm",
        "attributes": [
          "osm"
        ]
      },
      "otm": "https://opentripmap.com/ru/card/R4122321",
      "point": {
        "lon": 130.77049255371094,
        "lat": 42.58682632446289
      }
    },
    {
      "xid": "W501809843",
      "name": "",
      "address": {
        "state": "라선시",
        "suburb": "선봉읍",
        "country": "북조선",
        "village": "웅상동",
        "country_code": "kp"
      },
      "rate": "0",
      "osm": "way/501809843",
      "bbox": {
        "lon_min": 130.448859,
        "lon_max": 130.451215,
        "lat_min": 42.315476,
        "lat_max": 42.317679
      },
      "kinds": "natural,interesting_places,beaches,other_beaches",
      "sources": {
        "geometry": "osm",
        "attributes": [
          "osm"
        ]
      },
      "otm": "https://opentripmap.com/ru/card/W501809843",
      "point": {
        "lon": 130.4494171142578,
        "lat": 42.31647491455078
      }
    },
    {
      "xid": "N5310854293",
      "name": "",
      "address": {
        "state": "라선시",
        "country": "북조선",
        "village": "원정리",
        "country_code": "kp"
      },
      "rate": "0",
      "osm": "node/5310854293",
      "kinds": "mountain_peaks,geological_formations,natural,interesting_places",
      "sources": {
        "geometry": "osm",
        "attributes": [
          "osm"
        ]
      },
      "otm": "https://opentripmap.com/ru/card/N5310854293",
      "point": {
        "lon": 130.51116943359375,
        "lat": 42.55605697631836
      }
    },
    {
      "xid": "N5308347519",
      "name": "",
      "address": {
        "state": "라선시",
        "country": "북조선",
        "village": "원정리",
        "country_code": "kp"
      },
      "rate": "0",
      "osm": "node/5308347519",
      "kinds": "mountain_peaks,geological_formations,natural,interesting_places",
      "sources": {
        "geometry": "osm",
        "attributes": [
          "osm"
        ]
      },
      "otm": "https://opentripmap.com/ru/card/N5308347519",
      "point": {
        "lon": 130.4945526123047,
        "lat": 42.574623107910156
      }
    },
    {
      "xid": "R1852705",
      "name": "",
      "address": {
        "city": "Зарубинское городское поселение",
        "road": "05К-374",
        "state": "Приморский край",
        "county": "Хасанский район",
        "country": "Россия",
        "postcode": "692725",
        "country_code": "ru"
      },
      "rate": "0",
      "osm": "relation/1852705",
      "bbox": {
        "lon_min": 131.107951,
        "lon_max": 131.122027,
        "lat_min": 42.66578,
        "lat_max": 42.67288
      },
      "kinds": "natural,interesting_places,beaches,other_beaches",
      "sources": {
        "geometry": "osm",
        "attributes": [
          "osm"
        ]
      },
      "otm": "https://opentripmap.com/ru/card/R1852705",
      "point": {
        "lon": 131.11936950683594,
        "lat": 42.6693229675293
      }
    },
    {
      "xid": "N3047067600",
      "name": "",
      "address": {
        "city": "Посьетское городское поселение",
        "state": "Приморский край",
        "county": "Хасанский район",
        "country": "Россия",
        "country_code": "ru"
      },
      "rate": "0",
      "osm": "node/3047067600",
      "kinds": "mountain_peaks,geological_formations,natural,interesting_places",
      "sources": {
        "geometry": "osm",
        "attributes": [
          "osm"
        ]
      },
      "otm": "https://opentripmap.com/ru/card/N3047067600",
      "point": {
        "lon": 130.8752899169922,
        "lat": 42.60353469848633
      }
    },
    {
      "xid": "R3997332",
      "name": "",
      "address": {
        "city": "Посьетское городское поселение",
        "state": "Приморский край",
        "county": "Хасанский район",
        "country": "Россия",
        "country_code": "ru"
      },
      "rate": "0",
      "osm": "relation/3997332",
      "bbox": {
        "lon_min": 130.86419,
        "lon_max": 130.868097,
        "lat_min": 42.601985,
        "lat_max": 42.604451
      },
      "kinds": "interesting_places,natural,shingle_beaches,beaches",
      "sources": {
        "geometry": "osm",
        "attributes": [
          "osm"
        ]
      },
      "otm": "https://opentripmap.com/ru/card/R3997332",
      "point": {
        "lon": 130.86741638183594,
        "lat": 42.60322952270508
      }
    },
    {
      "xid": "N3046958291",
      "name": "",
      "address": {
        "city": "Посьетское городское поселение",
        "state": "Приморский край",
        "county": "Хасанский район",
        "country": "Россия",
        "country_code": "ru"
      },
      "rate": "0",
      "osm": "node/3046958291",
      "kinds": "mountain_peaks,geological_formations,natural,interesting_places",
      "sources": {
        "geometry": "osm",
        "attributes": [
          "osm"
        ]
      },
      "otm": "https://opentripmap.com/ru/card/N3046958291",
      "point": {
        "lon": 130.919677734375,
        "lat": 42.59983825683594
      }
    },
    {
      "xid": "W696987855",
      "name": "",
      "address": {
        "city": "Посьетское городское поселение",
        "state": "Приморский край",
        "county": "Хасанский район",
        "country": "Россия",
        "country_code": "ru"
      },
      "rate": "0",
      "osm": "way/696987855",
      "bbox": {
        "lon_min": 130.927605,
        "lon_max": 130.92965,
        "lat_min": 42.60428,
        "lat_max": 42.606653
      },
      "kinds": "interesting_places,natural,shingle_beaches,beaches",
      "sources": {
        "geometry": "osm",
        "attributes": [
          "osm"
        ]
      },
      "otm": "https://opentripmap.com/ru/card/W696987855",
      "point": {
        "lon": 130.9277801513672,
        "lat": 42.605430603027344
      }
    },
    {
      "xid": "R7372566",
      "name": "",
      "address": {
        "path": "Тропа к бухте Идол",
        "state": "Приморский край",
        "county": "Хасанский район",
        "hamlet": "Рисовая Падь",
        "country": "Россия",
        "postcode": "692707",
        "country_code": "ru"
      },
      "rate": "0",
      "osm": "relation/7372566",
      "bbox": {
        "lon_min": 131.129268,
        "lon_max": 131.129985,
        "lat_min": 42.620951,
        "lat_max": 42.623193
      },
      "kinds": "natural,interesting_places,beaches,other_beaches",
      "sources": {
        "geometry": "osm",
        "attributes": [
          "osm"
        ]
      },
      "otm": "https://opentripmap.com/ru/card/R7372566",
      "point": {
        "lon": 131.1298828125,
        "lat": 42.62216567993164
      }
    },
    {
      "xid": "W491536658",
      "name": "",
      "address": {
        "road": "Ключевая улица",
        "town": "Зарубино",
        "state": "Приморский край",
        "county": "Хасанский район",
        "country": "Россия",
        "postcode": "692725",
        "country_code": "ru",
        "house_number": "17"
      },
      "rate": "0",
      "osm": "way/491536658",
      "bbox": {
        "lon_min": 131.071998,
        "lon_max": 131.081783,
        "lat_min": 42.634527,
        "lat_max": 42.63966
      },
      "kinds": "natural,interesting_places,beaches,other_beaches",
      "sources": {
        "geometry": "osm",
        "attributes": [
          "osm"
        ]
      },
      "otm": "https://opentripmap.com/ru/card/W491536658",
      "point": {
        "lon": 131.074462890625,
        "lat": 42.63703918457031
      }
    },
    {
      "xid": "W491536679",
      "name": "",
      "address": {
        "city": "Зарубинское городское поселение",
        "road": "Солнечная улица",
        "state": "Приморский край",
        "county": "Хасанский район",
        "country": "Россия",
        "postcode": "692707",
        "country_code": "ru"
      },
      "rate": "0",
      "osm": "way/491536679",
      "bbox": {
        "lon_min": 131.136475,
        "lon_max": 131.13896,
        "lat_min": 42.626604,
        "lat_max": 42.634367
      },
      "kinds": "natural,interesting_places,beaches,other_beaches",
      "sources": {
        "geometry": "osm",
        "attributes": [
          "osm"
        ]
      },
      "otm": "https://opentripmap.com/ru/card/W491536679",
      "point": {
        "lon": 131.13882446289062,
        "lat": 42.6303596496582
      }
    },
    {
      "xid": "R7382995",
      "name": "",
      "address": {
        "city": "Зарубинское городское поселение",
        "state": "Приморский край",
        "county": "Хасанский район",
        "country": "Россия",
        "country_code": "ru"
      },
      "rate": "0",
      "osm": "relation/7382995",
      "bbox": {
        "lon_min": 131.167094,
        "lon_max": 131.167746,
        "lat_min": 42.572767,
        "lat_max": 42.573841
      },
      "kinds": "interesting_places,natural,shingle_beaches,beaches",
      "sources": {
        "geometry": "osm",
        "attributes": [
          "osm"
        ]
      },
      "otm": "https://opentripmap.com/ru/card/R7382995",
      "point": {
        "lon": 131.16758728027344,
        "lat": 42.57322311401367
      }
    },
    {
      "xid": "W491536675",
      "name": "",
      "address": {
        "city": "Зарубинское городское поселение",
        "road": "Солнечная улица",
        "state": "Приморский край",
        "county": "Хасанский район",
        "country": "Россия",
        "postcode": "692707",
        "country_code": "ru"
      },
      "rate": "0",
      "osm": "way/491536675",
      "bbox": {
        "lon_min": 131.133519,
        "lon_max": 131.135794,
        "lat_min": 42.634718,
        "lat_max": 42.635961
      },
      "kinds": "natural,interesting_places,beaches,other_beaches",
      "sources": {
        "geometry": "osm",
        "attributes": [
          "osm"
        ]
      },
      "otm": "https://opentripmap.com/ru/card/W491536675",
      "point": {
        "lon": 131.13523864746094,
        "lat": 42.635311126708984
      }
    },
    {
      "xid": "R8429738",
      "name": "",
      "address": {
        "city": "Зарубинское городское поселение",
        "state": "Приморский край",
        "county": "Хасанский район",
        "country": "Россия",
        "country_code": "ru"
      },
      "rate": "0",
      "osm": "relation/8429738",
      "bbox": {
        "lon_min": 131.213442,
        "lon_max": 131.217758,
        "lat_min": 42.654138,
        "lat_max": 42.654738
      },
      "kinds": "natural,interesting_places,beaches,other_beaches",
      "sources": {
        "geometry": "osm",
        "attributes": [
          "osm"
        ]
      },
      "otm": "https://opentripmap.com/ru/card/R8429738",
      "point": {
        "lon": 131.21714782714844,
        "lat": 42.654449462890625
      }
    },
    {
      "xid": "N1947002268",
      "name": "",
      "address": {
        "city": "Славянское городское поселение",
        "state": "Приморский край",
        "county": "Хасанский район",
        "country": "Россия",
        "country_code": "ru"
      },
      "rate": "0",
      "osm": "node/1947002268",
      "kinds": "mountain_peaks,geological_formations,natural,interesting_places",
      "sources": {
        "geometry": "osm",
        "attributes": [
          "osm"
        ]
      },
      "otm": "https://opentripmap.com/ru/card/N1947002268",
      "point": {
        "lon": 131.32325744628906,
        "lat": 42.79958724975586
      }
    },
    {
      "xid": "N1947002284",
      "name": "",
      "address": {
        "city": "Славянское городское поселение",
        "state": "Приморский край",
        "county": "Хасанский район",
        "country": "Россия",
        "country_code": "ru"
      },
      "rate": "0",
      "osm": "node/1947002284",
      "kinds": "mountain_peaks,geological_formations,natural,interesting_places",
      "sources": {
        "geometry": "osm",
        "attributes": [
          "osm"
        ]
      },
      "otm": "https://opentripmap.com/ru/card/N1947002284",
      "point": {
        "lon": 131.3314666748047,
        "lat": 42.800479888916016
      }
    },
    {
      "xid": "R1852717",
      "name": "",
      "address": {
        "city": "Зарубинское городское поселение",
        "state": "Приморский край",
        "county": "Хасанский район",
        "country": "Россия",
        "postcode": "692707",
        "country_code": "ru"
      },
      "rate": "0",
      "osm": "relation/1852717",
      "bbox": {
        "lon_min": 131.120628,
        "lon_max": 131.123363,
        "lat_min": 42.658908,
        "lat_max": 42.661145
      },
      "kinds": "natural,interesting_places,beaches,other_beaches",
      "sources": {
        "geometry": "osm",
        "attributes": [
          "osm"
        ]
      },
      "otm": "https://opentripmap.com/ru/card/R1852717",
      "point": {
        "lon": 131.12261962890625,
        "lat": 42.65990447998047
      }
    },
    {
      "xid": "R4844067",
      "name": "",
      "address": {
        "road": "Ключевая улица",
        "state": "Приморский край",
        "county": "Хасанский район",
        "country": "Россия",
        "village": "Андреевка",
        "postcode": "692707",
        "country_code": "ru"
      },
      "rate": "0",
      "osm": "relation/4844067",
      "bbox": {
        "lon_min": 131.127352,
        "lon_max": 131.128737,
        "lat_min": 42.643069,
        "lat_max": 42.645791
      },
      "kinds": "natural,interesting_places,beaches,other_beaches",
      "sources": {
        "geometry": "osm",
        "attributes": [
          "osm"
        ]
      },
      "otm": "https://opentripmap.com/ru/card/R4844067",
      "point": {
        "lon": 131.12808227539062,
        "lat": 42.64438247680664
      }
    },
    {
      "xid": "W491536668",
      "name": "",
      "address": {
        "city": "Славянское городское поселение",
        "state": "Приморский край",
        "county": "Хасанский район",
        "country": "Россия",
        "country_code": "ru"
      },
      "rate": "0",
      "osm": "way/491536668",
      "bbox": {
        "lon_min": 131.247952,
        "lon_max": 131.254032,
        "lat_min": 42.743153,
        "lat_max": 42.748499
      },
      "kinds": "natural,interesting_places,beaches,other_beaches",
      "sources": {
        "geometry": "osm",
        "attributes": [
          "osm"
        ]
      },
      "otm": "https://opentripmap.com/ru/card/W491536668",
      "point": {
        "lon": 131.2499237060547,
        "lat": 42.74583435058594
      }
    },
    {
      "xid": "R8833540",
      "name": "",
      "address": {
        "city": "Зарубинское городское поселение",
        "path": "подъём по верёвке",
        "state": "Приморский край",
        "county": "Хасанский район",
        "country": "Россия",
        "country_code": "ru"
      },
      "rate": "0",
      "osm": "relation/8833540",
      "bbox": {
        "lon_min": 131.240095,
        "lon_max": 131.242847,
        "lat_min": 42.675707,
        "lat_max": 42.678287
      },
      "kinds": "interesting_places,natural,shingle_beaches,beaches",
      "sources": {
        "geometry": "osm",
        "attributes": [
          "osm"
        ]
      },
      "otm": "https://opentripmap.com/ru/card/R8833540",
      "point": {
        "lon": 131.2406005859375,
        "lat": 42.67713928222656
      }
    },
    {
      "xid": "N5310557038",
      "name": "",
      "address": {
        "state": "라선시",
        "country": "북조선",
        "village": "원정리",
        "country_code": "kp"
      },
      "rate": "0",
      "osm": "node/5310557038",
      "kinds": "mountain_peaks,geological_formations,natural,interesting_places",
      "sources": {
        "geometry": "osm",
        "attributes": [
          "osm"
        ]
      },
      "otm": "https://opentripmap.com/ru/card/N5310557038",
      "point": {
        "lon": 130.51548767089844,
        "lat": 42.56326675415039
      }
    },
    {
      "xid": "R3997214",
      "name": "",
      "address": {
        "city": "Посьетское городское поселение",
        "state": "Приморский край",
        "county": "Хасанский район",
        "country": "Россия",
        "country_code": "ru"
      },
      "rate": "0",
      "osm": "relation/3997214",
      "bbox": {
        "lon_min": 130.932299,
        "lon_max": 130.942656,
        "lat_min": 42.609957,
        "lat_max": 42.613227
      },
      "kinds": "interesting_places,natural,shingle_beaches,beaches",
      "sources": {
        "geometry": "osm",
        "attributes": [
          "osm"
        ]
      },
      "otm": "https://opentripmap.com/ru/card/R3997214",
      "point": {
        "lon": 130.9356689453125,
        "lat": 42.61181640625
      }
    },
    {
      "xid": "R3997215",
      "name": "",
      "address": {
        "city": "Посьетское городское поселение",
        "state": "Приморский край",
        "county": "Хасанский район",
        "country": "Россия",
        "country_code": "ru"
      },
      "rate": "0",
      "osm": "relation/3997215",
      "bbox": {
        "lon_min": 130.931407,
        "lon_max": 130.932448,
        "lat_min": 42.608269,
        "lat_max": 42.609671
      },
      "kinds": "interesting_places,natural,shingle_beaches,beaches",
      "sources": {
        "geometry": "osm",
        "attributes": [
          "osm"
        ]
      },
      "otm": "https://opentripmap.com/ru/card/R3997215",
      "point": {
        "lon": 130.93194580078125,
        "lat": 42.609046936035156
      }
    },
    {
      "xid": "R4844069",
      "name": "",
      "address": {
        "state": "Приморский край",
        "county": "Хасанский район",
        "hamlet": "Рисовая Падь",
        "country": "Россия",
        "postcode": "692707",
        "country_code": "ru"
      },
      "rate": "0",
      "osm": "relation/4844069",
      "bbox": {
        "lon_min": 131.135065,
        "lon_max": 131.139577,
        "lat_min": 42.612492,
        "lat_max": 42.61466
      },
      "kinds": "interesting_places,natural,shingle_beaches,beaches",
      "sources": {
        "geometry": "osm",
        "attributes": [
          "osm"
        ]
      },
      "otm": "https://opentripmap.com/ru/card/R4844069",
      "point": {
        "lon": 131.1358184814453,
        "lat": 42.61355972290039
      }
    },
    {
      "xid": "R4122322",
      "name": "",
      "address": {
        "city": "Хасанское городское поселение",
        "state": "Приморский край",
        "county": "Хасанский район",
        "country": "Россия",
        "locality": "Коса Назимова",
        "postcode": "692705",
        "country_code": "ru"
      },
      "rate": "0",
      "osm": "relation/4122322",
      "bbox": {
        "lon_min": 130.773174,
        "lon_max": 130.796743,
        "lat_min": 42.600694,
        "lat_max": 42.632802
      },
      "kinds": "natural,interesting_places,beaches,other_beaches",
      "sources": {
        "geometry": "osm",
        "attributes": [
          "osm"
        ]
      },
      "otm": "https://opentripmap.com/ru/card/R4122322",
      "point": {
        "lon": 130.78343200683594,
        "lat": 42.6168098449707
      }
    },
    {
      "xid": "W141609965",
      "name": "",
      "address": {
        "city": "Зарубинское городское поселение",
        "state": "Приморский край",
        "county": "Хасанский район",
        "country": "Россия",
        "country_code": "ru"
      },
      "rate": "0",
      "osm": "way/141609965",
      "bbox": {
        "lon_min": 131.198624,
        "lon_max": 131.199829,
        "lat_min": 42.612816,
        "lat_max": 42.620119
      },
      "kinds": "natural,interesting_places,beaches,other_beaches",
      "sources": {
        "geometry": "osm",
        "attributes": [
          "osm"
        ]
      },
      "otm": "https://opentripmap.com/ru/card/W141609965",
      "point": {
        "lon": 131.19882202148438,
        "lat": 42.61637878417969
      }
    },
    {
      "xid": "R8450918",
      "name": "",
      "address": {
        "city": "Зарубинское городское поселение",
        "state": "Приморский край",
        "county": "Хасанский район",
        "country": "Россия",
        "postcode": "692725",
        "country_code": "ru"
      },
      "rate": "0",
      "osm": "relation/8450918",
      "bbox": {
        "lon_min": 131.017732,
        "lon_max": 131.030221,
        "lat_min": 42.646662,
        "lat_max": 42.650755
      },
      "kinds": "natural,interesting_places,beaches,other_beaches",
      "sources": {
        "geometry": "osm",
        "attributes": [
          "osm"
        ]
      },
      "otm": "https://opentripmap.com/ru/card/R8450918",
      "point": {
        "lon": 131.02935791015625,
        "lat": 42.64865493774414
      }
    },
    {
      "xid": "W667243561",
      "name": "",
      "address": {
        "state": "라선시",
        "country": "북조선",
        "village": "굴포리",
        "country_code": "kp"
      },
      "rate": "0",
      "osm": "way/667243561",
      "bbox": {
        "lon_min": 130.547679,
        "lon_max": 130.59256,
        "lat_min": 42.307064,
        "lat_max": 42.320518
      },
      "kinds": "natural,interesting_places,beaches,other_beaches",
      "sources": {
        "geometry": "osm",
        "attributes": [
          "osm"
        ]
      },
      "otm": "https://opentripmap.com/ru/card/W667243561",
      "point": {
        "lon": 130.58627319335938,
        "lat": 42.313716888427734
      }
    },
    {
      "xid": "R4122320",
      "name": "",
      "address": {
        "city": "Хасанское городское поселение",
        "state": "Приморский край",
        "county": "Хасанский район",
        "country": "Россия",
        "locality": "Коса Назимова",
        "postcode": "692705",
        "country_code": "ru"
      },
      "rate": "0",
      "osm": "relation/4122320",
      "bbox": {
        "lon_min": 130.77516,
        "lon_max": 130.776144,
        "lat_min": 42.60726,
        "lat_max": 42.61044
      },
      "kinds": "natural,interesting_places,beaches,other_beaches",
      "sources": {
        "geometry": "osm",
        "attributes": [
          "osm"
        ]
      },
      "otm": "https://opentripmap.com/ru/card/R4122320",
      "point": {
        "lon": 130.77572631835938,
        "lat": 42.60894775390625
      }
    },
    {
      "xid": "R3997333",
      "name": "",
      "address": {
        "city": "Посьетское городское поселение",
        "state": "Приморский край",
        "county": "Хасанский район",
        "country": "Россия",
        "country_code": "ru"
      },
      "rate": "0",
      "osm": "relation/3997333",
      "bbox": {
        "lon_min": 130.901264,
        "lon_max": 130.906788,
        "lat_min": 42.595919,
        "lat_max": 42.597667
      },
      "kinds": "natural,interesting_places,beaches,other_beaches",
      "sources": {
        "geometry": "osm",
        "attributes": [
          "osm"
        ]
      },
      "otm": "https://opentripmap.com/ru/card/R3997333",
      "point": {
        "lon": 130.90272521972656,
        "lat": 42.596824645996094
      }
    },
    {
      "xid": "R7399511",
      "name": "",
      "address": {
        "state": "Приморский край",
        "county": "Хасанский район",
        "country": "Россия",
        "village": "Посьет",
        "postcode": "692705",
        "country_code": "ru"
      },
      "rate": "0",
      "osm": "relation/7399511",
      "bbox": {
        "lon_min": 130.790823,
        "lon_max": 130.793717,
        "lat_min": 42.646754,
        "lat_max": 42.650831
      },
      "kinds": "natural,interesting_places,beaches,other_beaches",
      "sources": {
        "geometry": "osm",
        "attributes": [
          "osm"
        ]
      },
      "otm": "https://opentripmap.com/ru/card/R7399511",
      "point": {
        "lon": 130.79208374023438,
        "lat": 42.64878845214844
      }
    },
    {
      "xid": "R4122350",
      "name": "",
      "address": {
        "city": "Хасанское городское поселение",
        "state": "Приморский край",
        "county": "Хасанский район",
        "country": "Россия",
        "locality": "Коса Назимова",
        "postcode": "692705",
        "country_code": "ru"
      },
      "rate": "0",
      "osm": "relation/4122350",
      "bbox": {
        "lon_min": 130.794119,
        "lon_max": 130.795238,
        "lat_min": 42.633528,
        "lat_max": 42.633899
      },
      "kinds": "natural,interesting_places,beaches,other_beaches",
      "sources": {
        "geometry": "osm",
        "attributes": [
          "osm"
        ]
      },
      "otm": "https://opentripmap.com/ru/card/R4122350",
      "point": {
        "lon": 130.79473876953125,
        "lat": 42.63371658325195
      }
    },
    {
      "xid": "W491536655",
      "name": "",
      "address": {
        "city": "Посьетское городское поселение",
        "state": "Приморский край",
        "county": "Хасанский район",
        "country": "Россия",
        "country_code": "ru"
      },
      "rate": "0",
      "osm": "way/491536655",
      "bbox": {
        "lon_min": 130.855826,
        "lon_max": 130.857063,
        "lat_min": 42.664359,
        "lat_max": 42.666397
      },
      "kinds": "natural,interesting_places,beaches,other_beaches",
      "sources": {
        "geometry": "osm",
        "attributes": [
          "osm"
        ]
      },
      "otm": "https://opentripmap.com/ru/card/W491536655",
      "point": {
        "lon": 130.85655212402344,
        "lat": 42.665531158447266
      }
    },
    {
      "xid": "W491536651",
      "name": "",
      "address": {
        "town": "Зарубино",
        "state": "Приморский край",
        "county": "Хасанский район",
        "country": "Россия",
        "postcode": "692725",
        "country_code": "ru"
      },
      "rate": "0",
      "osm": "way/491536651",
      "bbox": {
        "lon_min": 131.058443,
        "lon_max": 131.071152,
        "lat_min": 42.640924,
        "lat_max": 42.64358
      },
      "kinds": "natural,interesting_places,beaches,other_beaches",
      "sources": {
        "geometry": "osm",
        "attributes": [
          "osm"
        ]
      },
      "otm": "https://opentripmap.com/ru/card/W491536651",
      "point": {
        "lon": 131.05918884277344,
        "lat": 42.6422119140625
      }
    },
    {
      "xid": "R1879242",
      "name": "",
      "address": {
        "road": "Школьная улица",
        "state": "Приморский край",
        "county": "Хасанский район",
        "country": "Россия",
        "village": "Андреевка",
        "postcode": "692707",
        "country_code": "ru",
        "house_number": "10"
      },
      "rate": "0",
      "osm": "relation/1879242",
      "bbox": {
        "lon_min": 131.12563,
        "lon_max": 131.128406,
        "lat_min": 42.645773,
        "lat_max": 42.649974
      },
      "kinds": "natural,interesting_places,beaches,other_beaches",
      "sources": {
        "geometry": "osm",
        "attributes": [
          "osm"
        ]
      },
      "otm": "https://opentripmap.com/ru/card/R1879242",
      "point": {
        "lon": 131.12733459472656,
        "lat": 42.64797592163086
      }
    },
    {
      "xid": "R1879262",
      "name": "",
      "address": {
        "city": "Зарубинское городское поселение",
        "road": "Набережная улица",
        "state": "Приморский край",
        "county": "Хасанский район",
        "country": "Россия",
        "postcode": "692707",
        "country_code": "ru",
        "house_number": "22"
      },
      "rate": "0",
      "osm": "relation/1879262",
      "bbox": {
        "lon_min": 131.123442,
        "lon_max": 131.126862,
        "lat_min": 42.635799,
        "lat_max": 42.638935
      },
      "kinds": "natural,interesting_places,beaches,other_beaches",
      "sources": {
        "geometry": "osm",
        "attributes": [
          "osm"
        ]
      },
      "otm": "https://opentripmap.com/ru/card/R1879262",
      "point": {
        "lon": 131.12440490722656,
        "lat": 42.63742446899414
      }
    },
    {
      "xid": "R3988552",
      "name": "",
      "address": {
        "city": "Зарубинское городское поселение",
        "state": "Приморский край",
        "county": "Хасанский район",
        "country": "Россия",
        "postcode": "692707",
        "country_code": "ru"
      },
      "rate": "0",
      "osm": "relation/3988552",
      "bbox": {
        "lon_min": 131.121598,
        "lon_max": 131.123058,
        "lat_min": 42.662039,
        "lat_max": 42.665809
      },
      "kinds": "natural,interesting_places,beaches,other_beaches",
      "sources": {
        "geometry": "osm",
        "attributes": [
          "osm"
        ]
      },
      "otm": "https://opentripmap.com/ru/card/R3988552",
      "point": {
        "lon": 131.12290954589844,
        "lat": 42.66392135620117
      }
    },
    {
      "xid": "R4844068",
      "name": "",
      "address": {
        "city": "Зарубинское городское поселение",
        "road": "Набережная улица",
        "state": "Приморский край",
        "county": "Хасанский район",
        "country": "Россия",
        "postcode": "692707",
        "country_code": "ru"
      },
      "rate": "0",
      "osm": "relation/4844068",
      "bbox": {
        "lon_min": 131.126761,
        "lon_max": 131.131741,
        "lat_min": 42.637092,
        "lat_max": 42.639016
      },
      "kinds": "natural,interesting_places,beaches,other_beaches",
      "sources": {
        "geometry": "osm",
        "attributes": [
          "osm"
        ]
      },
      "otm": "https://opentripmap.com/ru/card/R4844068",
      "point": {
        "lon": 131.12982177734375,
        "lat": 42.63803482055664
      }
    },
    {
      "xid": "R7399512",
      "name": "",
      "address": {
        "city": "Зарубинское городское поселение",
        "road": "05К-374",
        "state": "Приморский край",
        "county": "Хасанский район",
        "country": "Россия",
        "postcode": "692707",
        "country_code": "ru"
      },
      "rate": "0",
      "osm": "relation/7399512",
      "bbox": {
        "lon_min": 131.123612,
        "lon_max": 131.124524,
        "lat_min": 42.653562,
        "lat_max": 42.657979
      },
      "kinds": "natural,interesting_places,beaches,other_beaches",
      "sources": {
        "geometry": "osm",
        "attributes": [
          "osm"
        ]
      },
      "otm": "https://opentripmap.com/ru/card/R7399512",
      "point": {
        "lon": 131.12432861328125,
        "lat": 42.6558723449707
      }
    },
    {
      "xid": "W491536652",
      "name": "",
      "address": {
        "road": "Морская улица",
        "state": "Приморский край",
        "county": "Хасанский район",
        "hamlet": "Рисовая Падь",
        "country": "Россия",
        "postcode": "692707",
        "country_code": "ru",
        "house_number": "1"
      },
      "rate": "0",
      "osm": "way/491536652",
      "bbox": {
        "lon_min": 131.147724,
        "lon_max": 131.150768,
        "lat_min": 42.609268,
        "lat_max": 42.610413
      },
      "kinds": "natural,interesting_places,beaches,other_beaches",
      "sources": {
        "geometry": "osm",
        "attributes": [
          "osm"
        ]
      },
      "otm": "https://opentripmap.com/ru/card/W491536652",
      "point": {
        "lon": 131.15023803710938,
        "lat": 42.609832763671875
      }
    },
    {
      "xid": "R8429742",
      "name": "",
      "address": {
        "city": "Зарубинское городское поселение",
        "state": "Приморский край",
        "county": "Хасанский район",
        "country": "Россия",
        "country_code": "ru"
      },
      "rate": "0",
      "osm": "relation/8429742",
      "bbox": {
        "lon_min": 131.205095,
        "lon_max": 131.208113,
        "lat_min": 42.649252,
        "lat_max": 42.652678
      },
      "kinds": "natural,interesting_places,beaches,other_beaches",
      "sources": {
        "geometry": "osm",
        "attributes": [
          "osm"
        ]
      },
      "otm": "https://opentripmap.com/ru/card/R8429742",
      "point": {
        "lon": 131.20565795898438,
        "lat": 42.65097427368164
      }
    },
    {
      "xid": "R8429739",
      "name": "",
      "address": {
        "city": "Зарубинское городское поселение",
        "state": "Приморский край",
        "county": "Хасанский район",
        "country": "Россия",
        "country_code": "ru"
      },
      "rate": "0",
      "osm": "relation/8429739",
      "bbox": {
        "lon_min": 131.217887,
        "lon_max": 131.218826,
        "lat_min": 42.651629,
        "lat_max": 42.652517
      },
      "kinds": "natural,interesting_places,beaches,other_beaches",
      "sources": {
        "geometry": "osm",
        "attributes": [
          "osm"
        ]
      },
      "otm": "https://opentripmap.com/ru/card/R8429739",
      "point": {
        "lon": 131.21856689453125,
        "lat": 42.652061462402344
      }
    },
    {
      "xid": "W491536693",
      "name": "",
      "address": {
        "state": "Приморский край",
        "county": "Хасанский район",
        "hamlet": "Рязановка",
        "country": "Россия",
        "country_code": "ru"
      },
      "rate": "0",
      "osm": "way/491536693",
      "bbox": {
        "lon_min": 131.255334,
        "lon_max": 131.272919,
        "lat_min": 42.764563,
        "lat_max": 42.780996
      },
      "kinds": "natural,interesting_places,beaches,other_beaches",
      "sources": {
        "geometry": "osm",
        "attributes": [
          "osm"
        ]
      },
      "otm": "https://opentripmap.com/ru/card/W491536693",
      "point": {
        "lon": 131.25982666015625,
        "lat": 42.772972106933594
      }
    },
    {
      "xid": "W328689411",
      "name": "",
      "address": {
        "city": "Славянское городское поселение",
        "state": "Приморский край",
        "county": "Хасанский район",
        "country": "Россия",
        "country_code": "ru"
      },
      "rate": "0",
      "osm": "way/328689411",
      "bbox": {
        "lon_min": 131.249737,
        "lon_max": 131.250588,
        "lat_min": 42.81448,
        "lat_max": 42.814905
      },
      "kinds": "natural,interesting_places,beaches,other_beaches",
      "sources": {
        "geometry": "osm",
        "attributes": [
          "osm"
        ]
      },
      "otm": "https://opentripmap.com/ru/card/W328689411",
      "point": {
        "lon": 131.25030517578125,
        "lat": 42.814720153808594
      }
    },
    {
      "xid": "R8833541",
      "name": "",
      "address": {
        "city": "Зарубинское городское поселение",
        "path": "подъём по верёвке",
        "state": "Приморский край",
        "county": "Хасанский район",
        "country": "Россия",
        "country_code": "ru"
      },
      "rate": "0",
      "osm": "relation/8833541",
      "bbox": {
        "lon_min": 131.243864,
        "lon_max": 131.244527,
        "lat_min": 42.675561,
        "lat_max": 42.675979
      },
      "kinds": "interesting_places,natural,shingle_beaches,beaches",
      "sources": {
        "geometry": "osm",
        "attributes": [
          "osm"
        ]
      },
      "otm": "https://opentripmap.com/ru/card/R8833541",
      "point": {
        "lon": 131.2440643310547,
        "lat": 42.675811767578125
      }
    },
    {
      "xid": "W621849545",
      "name": "",
      "address": {
        "state": "Приморский край",
        "county": "Хасанский район",
        "country": "Россия",
        "village": "Посьет",
        "postcode": "692705",
        "country_code": "ru"
      },
      "rate": "0",
      "osm": "way/621849545",
      "bbox": {
        "lon_min": 130.790549,
        "lon_max": 130.793131,
        "lat_min": 42.658416,
        "lat_max": 42.662262
      },
      "kinds": "interesting_places,natural,shingle_beaches,beaches",
      "sources": {
        "geometry": "osm",
        "attributes": [
          "osm"
        ]
      },
      "otm": "https://opentripmap.com/ru/card/W621849545",
      "point": {
        "lon": 130.79248046875,
        "lat": 42.66032409667969
      }
    },
    {
      "xid": "R8833533",
      "name": "",
      "address": {
        "city": "Зарубинское городское поселение",
        "path": "перемываемая волнами рыхлая коса, метров 7",
        "state": "Приморский край",
        "county": "Хасанский район",
        "country": "Россия",
        "country_code": "ru"
      },
      "rate": "0",
      "osm": "relation/8833533",
      "bbox": {
        "lon_min": 131.236179,
        "lon_max": 131.240466,
        "lat_min": 42.699778,
        "lat_max": 42.708284
      },
      "kinds": "interesting_places,natural,shingle_beaches,beaches",
      "sources": {
        "geometry": "osm",
        "attributes": [
          "osm"
        ]
      },
      "otm": "https://opentripmap.com/ru/card/R8833533",
      "point": {
        "lon": 131.23678588867188,
        "lat": 42.703834533691406
      }
    },
    {
      "xid": "R2447380",
      "name": "",
      "address": {
        "city": "Зарубинское городское поселение",
        "state": "Приморский край",
        "county": "Хасанский район",
        "country": "Россия",
        "country_code": "ru"
      },
      "rate": "0",
      "osm": "relation/2447380",
      "bbox": {
        "lon_min": 131.241588,
        "lon_max": 131.246603,
        "lat_min": 42.722257,
        "lat_max": 42.728218
      },
      "kinds": "interesting_places,natural,shingle_beaches,beaches",
      "sources": {
        "geometry": "osm",
        "attributes": [
          "osm"
        ]
      },
      "otm": "https://opentripmap.com/ru/card/R2447380",
      "point": {
        "lon": 131.24252319335938,
        "lat": 42.72514343261719
      }
    },
    {
      "xid": "R2309146",
      "name": "",
      "address": {
        "state": "Приморский край",
        "country": "Россия",
        "country_code": "ru"
      },
      "rate": "0",
      "osm": "relation/2309146",
      "bbox": {
        "lon_min": 130.746877,
        "lon_max": 131.028814,
        "lat_min": 42.360854,
        "lat_max": 42.633735
      },
      "kinds": "natural,interesting_places,nature_reserves,nature_reserves_others",
      "sources": {
        "geometry": "osm",
        "attributes": [
          "osm"
        ]
      },
      "otm": "https://opentripmap.com/ru/card/R2309146",
      "point": {
        "lon": 130.9287872314453,
        "lat": 42.495662689208984
      }
    },
    {
      "xid": "R2447381",
      "name": "",
      "address": {
        "city": "Славянское городское поселение",
        "state": "Приморский край",
        "county": "Хасанский район",
        "country": "Россия",
        "country_code": "ru"
      },
      "rate": "0",
      "osm": "relation/2447381",
      "bbox": {
        "lon_min": 131.256179,
        "lon_max": 131.25992,
        "lat_min": 42.750087,
        "lat_max": 42.76389
      },
      "kinds": "interesting_places,natural,shingle_beaches,beaches",
      "sources": {
        "geometry": "osm",
        "attributes": [
          "osm"
        ]
      },
      "otm": "https://opentripmap.com/ru/card/R2447381",
      "point": {
        "lon": 131.25682067871094,
        "lat": 42.75712966918945
      }
    },
    {
      "xid": "W491536706",
      "name": "",
      "address": {
        "road": "Набережная улица",
        "town": "Славянка",
        "state": "Приморский край",
        "county": "Хасанский район",
        "suburb": "Рыбак",
        "country": "Россия",
        "postcode": "692701",
        "country_code": "ru"
      },
      "rate": "0",
      "osm": "way/491536706",
      "bbox": {
        "lon_min": 131.378291,
        "lon_max": 131.379732,
        "lat_min": 42.912448,
        "lat_max": 42.914824
      },
      "kinds": "natural,interesting_places,beaches,other_beaches",
      "sources": {
        "geometry": "osm",
        "attributes": [
          "osm"
        ]
      },
      "otm": "https://opentripmap.com/ru/card/W491536706",
      "point": {
        "lon": 131.3787078857422,
        "lat": 42.913719177246094
      }
    },
    {
      "xid": "W430451127",
      "name": "",
      "address": {
        "city": "Славянское городское поселение",
        "state": "Приморский край",
        "county": "Хасанский район",
        "country": "Россия",
        "country_code": "ru"
      },
      "rate": "0",
      "osm": "way/430451127",
      "bbox": {
        "lon_min": 131.314209,
        "lon_max": 131.320421,
        "lat_min": 42.795118,
        "lat_max": 42.795708
      },
      "kinds": "dry_lakes,water,natural,interesting_places",
      "sources": {
        "geometry": "osm",
        "attributes": [
          "osm"
        ]
      },
      "otm": "https://opentripmap.com/ru/card/W430451127",
      "point": {
        "lon": 131.3172607421875,
        "lat": 42.79543685913086
      }
    },
    {
      "xid": "N414170281",
      "name": "сопка Орлиное гнездо",
      "address": {
        "city": "Владивосток",
        "road": "Нерчинская улица",
        "state": "Приморский край",
        "county": "Владивостокский городской округ",
        "country": "Россия",
        "postcode": "690000",
        "country_code": "ru",
        "house_number": "26А",
        "city_district": "Ленинский район"
      },